time[s],timer[ticks=0.15625ms],frameNumber[int],angle_pitch[rad],angle_roll[rad],angle_yaw[rad],latitude_best_estimate[deg],longitude_best_estimate[deg],height[m],flight_time[s]
1310129977.0590000153,1859873,588,0.1675516081914556199,-0.032637657012293964931,0.9503317777109124842,55.237541800000002468,-6.4276444000000001466,9.0609999999999999432,0
1310129977.2590000629,1861153,589,0.16912240451825052978,-0.034557519189487725941,0.95452056791569872551,55.237541800000002468,-6.4276444000000001466,9.0920000000000005258,0
1310129977.4590001106,1862433,590,0.16301375213627036787,-0.034906585039886590949,0.94160513145094082432,55.237541499999998962,-6.4276439999999999131,9.0570000000000003837,0
1310129977.6589999199,1863713,591,0.16545721308906244373,-0.036302848441482057917,0.9505063106361119063,55.237541200000002561,-6.4276438000000002404,8.9789999999999992042,0
1310129977.8589999676,1864993,592,0.16179202165987432993,-0.037175513067479216966,0.94195419730133966851,55.237541200000002561,-6.4276438000000002404,9.0229999999999996874,0
1310129978.0590000153,1866273,593,0.16301375213627036787,-0.036302848441482057917,0.9414305985257412912,55.237541000000000224,-6.42764369999999996,9.0559999999999991616,0
1310129978.2590000629,1867553,594,0.1640609496874669837,-0.035081117965086019983,0.9354964790689606069,55.237541000000000224,-6.42764369999999996,9.1319999999999996732,0
1310129978.4590001106,1868833,595,0.16650441064025903182,-0.034557519189487725941,0.94422312532893226678,55.237540799999997887,-6.4276435999999996795,9.10800000000000054,0
1310129978.6589999199,1870113,596,0.16615534478986015987,-0.032812189937493393965,0.93793994002175273828,55.237540799999997887,-6.4276435999999996795,9.1110000000000006537,0
1310129978.8589999676,1871393,597,0.1680752069670539417,-0.035255650890285455956,0.95102990941171017258,55.237540600000002655,-6.4276432000000003342,9.0899999999999998579,0
1310129979.0590000153,1872673,598,0.16877333866785165783,-0.036128315516282615005,0.94684111920692370923,55.237540600000002655,-6.4276432000000003342,9.1359999999999992326,0
1310129979.2590000629,1873953,599,0.17156586547104260565,-0.035953782591083185971,0.95923295689608356618,55.237540600000002655,-6.4276432000000003342,9.1980000000000003979,0
1310129979.4590001106,1875233,600,0.17296212887263806568,-0.033859387488689988988,0.96097828614807789815,55.237540299999999149,-6.4276429000000003811,9.1180000000000003268,0
1310129979.6589999199,1876513,601,0.17400932642383465376,-0.032812189937493393965,0.96569067512846251677,55.237540299999999149,-6.4276429000000003811,9.2110000000000002984,0
1310129979.8589999676,1877793,602,0.17156586547104260565,-0.035779249665883749998,0.9557422983920947912,55.237540099999996812,-6.4276426000000004279,9.150999999999999801,0
1310129980.0590000153,1879073,603,0.17261306302223919373,-0.034557519189487725941,0.96516707635286413947,55.237540099999996812,-6.4276426000000004279,9.2029999999999994031,0
1310129980.2590000629,1880353,604,0.17331119472303690987,-0.03351032163829112398,0.96551614220326309468,55.237539800000000412,-6.4276423999999998671,9.1699999999999999289,0
1310129980.4590001106,1881633,605,0.17558012275062956364,-0.034382986264288289968,0.96743600438045684875,55.237539800000000412,-6.4276423999999998671,9.207000000000000739,0
1310129980.6589999199,1882913,606,0.17627825445142727978,-0.031415926535897933936,0.95347337036450230396,55.237539599999998075,-6.427642099999999914,9.2289999999999992042,0
1310129980.8589999676,1884193,607,0.17715091907742444577,-0.031939525311496227977,0.96883226778205222551,55.237539599999998075,-6.427642099999999914,9.3109999999999999432,0
1310129981.0590000153,1885473,608,0.17400932642383465376,-0.033859387488689988988,0.95801122641968750049,55.237539400000002843,-6.4276419000000002413,9.2710000000000007958,0
1310129981.2590000629,1886753,609,0.17418385934903410361,-0.036302848441482057917,0.96621427390406078306,55.237539200000000505,-6.427642099999999914,9.2710000000000007958,0
1310129981.4590001106,1888033,610,0.17383479349863523167,-0.036128315516282615005,0.95801122641968750049,55.237539200000000505,-6.427642099999999914,9.2680000000000006821,0
1310129981.6589999199,1889313,611,0.17348572764823633197,-0.033684854563490559953,0.96254908247487269701,55.237538999999998168,-6.4276422000000001944,9.3360000000000002984,0
1310129981.8589999676,1890593,612,0.17278759594743861583,-0.035953782591083185971,0.96185095077407500863,55.237538999999998168,-6.4276422000000001944,9.3450000000000006395,0
1310129982.0590000153,1891873,613,0.17697638615222502367,-0.03543018381548488499,0.9646434775772659842,55.237538899999997,-6.4276422000000001944,9.3849999999999997868,0
1310129982.2590000629,1893153,614,0.17610372152622785769,-0.035953782591083185971,0.95731309471888981211,55.237538899999997,-6.4276422000000001944,9.35800000000000054,0
1310129982.4590001106,1894433,615,0.17540558982543014155,-0.03351032163829112398,0.96534160927806367258,55.237538700000001768,-6.4276423999999998671,9.4299999999999997158,0
1310129982.6589999199,1895713,616,0.17418385934903410361,-0.035953782591083185971,0.96220001662447385282,55.237538700000001768,-6.4276423999999998671,9.4220000000000005969,0
1310129982.8589999676,1896993,617,0.1713913325458431558,-0.03543018381548488499,0.96097828614807789815,55.237538700000001768,-6.4276423999999998671,9.4480000000000003979,0
1310129983.0590000153,1898273,618,0.17261306302223919373,-0.03543018381548488499,0.95242617281330566037,55.237538600000000599,-6.4276426999999998202,9.4969999999999998863,0
1310129983.2590000629,1899553,619,0.17226399717184032179,-0.036651914291880922925,0.95190257403770728306,55.237538600000000599,-6.4276426999999998202,9.5009999999999994458,0
1310129983.4590001106,1900833,620,0.1713913325458431558,-0.036302848441482057917,0.9489355143093168854,55.237538600000000599,-6.4276426999999998202,9.5559999999999991616,0
1310129983.6589999199,1902113,621,0.17069320084504541191,-0.036477381366681486952,0.95417150206529999235,55.237538600000000599,-6.4276426999999998202,9.5090000000000003411,0
1310129983.8589999676,1903393,622,0.17069320084504541191,-0.036477381366681486952,0.95329883743930277085,55.237538600000000599,-6.4276426999999998202,9.5730000000000003979,0
1310129984.0590000153,1904673,623,0.17051866791984598981,-0.03926990816987241395,0.94666658628172439816,55.237538600000000599,-6.4276426999999998202,9.6270000000000006679,0
1310129984.2590000629,1905953,624,0.17104226669544431161,-0.040491638646268444945,0.95452056791569872551,55.237538600000000599,-6.4276426999999998202,9.6389999999999993463,0
1310129984.4590001106,1907233,625,0.1712167996206437337,-0.037699111843077517947,0.95364790328970161504,55.237538600000000599,-6.4276426999999998202,9.6649999999999991473,0
1310129984.6589999199,1908513,626,0.1680752069670539417,-0.037524578917878081974,0.94631752043132544294,55.237538600000000599,-6.4276426999999998202,9.6489999999999991331,0
1310129984.8589999676,1909793,627,0.1713913325458431558,-0.035953782591083185971,0.94404859240373284468,55.237538600000000599,-6.4276426999999998202,9.6560000000000005826,0
1310129985.0590000153,1911073,628,0.17523105690023066394,-0.031764992386296798943,0.95783669349448807839,55.237538600000000599,-6.4276426999999998202,9.6820000000000003837,0
1310129985.2590000629,1912353,629,0.17889624832941877774,-0.033859387488689988988,0.96586520805366204989,55.237538600000000599,-6.4276426999999998202,9.7110000000000002984,0
1310129985.4590001106,1913633,630,0.18081611050661253182,-0.034906585039886590949,0.97581358479002955342,55.237538600000000599,-6.4276426999999998202,9.7189999999999994174,0
1310129985.6589999199,1914913,631,0.18273597268380631364,-0.03735004599267865294,0.9843656981248017912,55.237538600000000599,-6.4276426999999998202,9.6440000000000001279,0
1310129985.8589999676,1916193,632,0.17924531417981762194,-0.037000980142279787932,0.96883226778205222551,55.237538600000000599,-6.4276426999999998202,9.6500000000000003553,0
1310129986.0590000153,1917473,633,0.17802358370342161176,-0.037873644768276946981,0.95818575934488692258,55.237538600000000599,-6.4276426999999998202,9.7289999999999992042,0
1310129986.2590000629,1918754,634,0.17959438003021649388,-0.036302848441482057917,0.96761053730565627085,55.237538600000000599,-6.4276426999999998202,9.8019999999999996021,0
1310129986.4590001106,1920034,635,0.1783726495538204837,-0.034732052114687154976,0.96342174710086991851,55.237538600000000599,-6.4276426999999998202,9.8089999999999992752,0
1310129986.6589999199,1921314,636,0.18221237390820799185,-0.036302848441482057917,0.97930424329401832839,55.237538600000000599,-6.4276426999999998202,9.83799999999999919,0
1310129986.8589999676,1922594,637,0.17592918860102840783,-0.038397243543875254901,0.96534160927806367258,55.237538600000000599,-6.4276426999999998202,9.7980000000000000426,0
1310129987.0590000153,1923874,638,0.17331119472303690987,-0.037699111843077517947,0.96289814832527165223,55.237538600000000599,-6.4276426999999998202,9.8559999999999998721,0
1310129987.2590000629,1925154,639,0.17523105690023066394,-0.03735004599267865294,0.96342174710086991851,55.237538600000000599,-6.4276426999999998202,9.8330000000000001847,0
1310129987.4590001106,1926434,640,0.16999506914424769577,-0.039444441095071842984,0.95137897526210901678,55.237538600000000599,-6.4276426999999998202,9.89199999999999946,0
1310129987.6589999199,1927714,641,0.17278759594743861583,-0.038048177693476382955,0.94771378383292093073,55.237538600000000599,-6.4276426999999998202,9.8759999999999994458,0
1310129987.8589999676,1928994,642,0.17366026057343578182,-0.037873644768276946981,0.95329883743930277085,55.237538600000000599,-6.4276426999999998202,9.8569999999999993179,0
1310129988.0590000153,1930274,643,0.17313666179783748778,-0.038397243543875254901,0.95102990941171017258,55.237538600000000599,-6.4276426999999998202,9.9329999999999998295,0
1310129988.2590000629,1931554,644,0.17366026057343578182,-0.036477381366681486952,0.95713856179369039001,55.237538600000000599,-6.4276426999999998202,9.8670000000000008811,0
1310129988.4590001106,1932834,645,0.17278759594743861583,-0.037873644768276946981,0.95329883743930277085,55.237538600000000599,-6.4276426999999998202,9.8900000000000005684,0
1310129988.6589999199,1934114,646,0.17313666179783748778,-0.038048177693476382955,0.95713856179369039001,55.237538600000000599,-6.4276426999999998202,9.9510000000000005116,0
1310129988.8589999676,1935394,647,0.17296212887263806568,-0.039793506945470707992,0.9505063106361119063,55.237538600000000599,-6.4276426999999998202,9.9309999999999991616,0
1310129989.0590000153,1936674,648,0.17069320084504541191,-0.041713369122664475941,0.95207710696290670516,55.237538600000000599,-6.4276426999999998202,9.9619999999999997442,0
1310129989.2590000629,1937954,649,0.16824973989225336379,-0.040142572795869572999,0.9505063106361119063,55.237538600000000599,-6.4276426999999998202,9.9809999999999998721,0
1310129989.4590001106,1939234,650,0.16493361431346412194,-0.041713369122664475941,0.94596845458092659875,55.237538600000000599,-6.4276426999999998202,10.086000000000000298,0
1310129989.6589999199,1940514,651,0.16126842288427606364,-0.041015237421866745926,0.93218035349017136504,55.237538600000000599,-6.4276426999999998202,10.101000000000000867,0
1310129989.8589999676,1941794,652,0.16266468628587152367,-0.042935099599060506936,0.94335046070293504528,55.237538600000000599,-6.4276426999999998202,10.140000000000000568,0
1310129990.0590000153,1943074,653,0.16109388995907661379,-0.040491638646268444945,0.93287848519096916444,55.237538600000000599,-6.4276426999999998202,10.114000000000000767,0
1310129990.2590000629,1944354,654,0.16301375213627036787,-0.038920842319473548943,0.94195419730133966851,55.237538600000000599,-6.4276426999999998202,10.147000000000000242,0
1310129990.4590001106,1945634,655,0.15899949485668340987,-0.038571776469074683935,0.91734505484821959875,55.237538600000000599,-6.4276426999999998202,10.159000000000000696,0
1310129990.6589999199,1946914,656,0.16353735091186866191,-0.039793506945470707992,0.94055793389974418073,55.237538600000000599,-6.4276426999999998202,10.189000000000000057,0
1310129990.8589999676,1948194,657,0.16510814723866359954,-0.036651914291880922925,0.93811447294695216037,55.237538600000000599,-6.4276426999999998202,10.201999999999999957,0
1310129991.0590000153,1949474,658,0.16545721308906244373,-0.039793506945470707992,0.94579392165572717666,55.237538600000000599,-6.4276426999999998202,10.227999999999999758,0
1310129991.2590000629,1950754,659,0.15795229730548682179,-0.04118977034706617496,0.92101024627740779582,55.237538600000000599,-6.4276426999999998202,10.140000000000000568,0
1310129991.4590001106,1952034,660,0.15044738152191119984,-0.040317105721069015911,0.91525065974582631156,55.237538600000000599,-6.4276426999999998202,10.195000000000000284,0
1310129991.6589999199,1953314,661,0.15097098029750952164,-0.041887902047863904975,0.90181162450547014409,55.237538600000000599,-6.4276426999999998202,10.198999999999999844,0
1310129991.8589999676,1954594,662,0.15219271077390553182,-0.043633231299858236951,0.92153384505300595109,55.237538600000000599,-6.4276426999999998202,0.69499999999999995115,0
1310129992.0590000153,1955874,663,0.15289084247470327571,-0.043633231299858236951,0.94544485580532833247,55.237538600000000599,-6.4276426999999998202,0.41299999999999997824,0
1310129992.2590000629,1957154,664,0.15655603390389136176,-0.042411500823462212895,0.9354964790689606069,55.237538600000000599,-6.4276426999999998202,0.14099999999999998646,0
1310129992.4590001106,1958434,665,0.16214108751027320188,-0.03926990816987241395,0.94544485580532833247,55.237538600000000599,-6.4276426999999998202,-0.10299999999999999434,0
1310129992.6589999199,1959714,666,0.16231562043547265173,-0.039968039870670143965,0.94003433512414591444,55.237538600000000599,-6.4276426999999998202,-0.35999999999999998668,0
1310129992.8589999676,1960994,667,0.1569050997542902337,-0.040491638646268444945,0.95190257403770728306,55.237538600000000599,-6.4276426999999998202,-0.63200000000000000622,0
1310129993.0590000153,1962274,668,0.15271630954950382586,-0.040840704496667309953,0.91420346219462989001,55.237538600000000599,-6.4276426999999998202,-0.90600000000000002753,0
1310129993.2590000629,1963554,669,0.14416419621473161583,-0.039968039870670143965,0.89413217579669490576,55.237538600000000599,-6.4276426999999998202,-1.0989999999999999769,0
1310129993.4590001106,1964834,670,0.13823007675795090377,-0.036651914291880922925,0.89325951117069779528,55.237538600000000599,-6.4276426999999998202,-1.1910000000000000586,0
1310129993.6589999199,1966114,671,0.13700834628155486583,-0.037000980142279787932,0.90128802572987176678,55.237538600000000599,-6.4276426999999998202,-1.4510000000000000675,0
1310129993.8589999676,1967394,672,0.13683381335635544374,-0.037524578917878081974,0.90757121103705129528,55.237538600000000599,-6.4276426999999998202,-1.5220000000000000195,0
1310129994.0590000153,1968674,673,0.13264502315156903589,-0.037524578917878081974,0.90547681593465823013,55.237538600000000599,-6.4276426999999998202,-1.383999999999999897,0
1310129994.2590000629,1969954,674,0.12688543661998774592,-0.039618974020271278957,0.8925613794699001069,55.237538600000000599,-6.4276426999999998202,-1.6120000000000000995,0
1310129994.4590001106,1971234,675,0.12514010736799341394,-0.041887902047863904975,0.88278753565873180342,55.237538600000000599,-6.4276426999999998202,-1.5600000000000000533,0
1310129994.6589999199,1972514,676,0.12758356832078548981,-0.041713369122664475941,0.88575459538712220109,55.237538600000000599,-6.4276426999999998202,-1.5989999999999999769,0
1310129994.8589999676,1973794,677,0.12339477811599909585,-0.039444441095071842984,0.89587750504868934875,55.237538600000000599,-6.4276426999999998202,-1.4170000000000000373,0
1310129995.0590000153,1975074,678,0.11536626355682517986,-0.042062434973063340948,0.88383473320992844702,55.237538600000000599,-6.4276426999999998202,-1.2250000000000000888,0
1310129995.2590000629,1976354,679,0.10733774899765127775,-0.041364303272265610933,0.87737701497754949642,55.237538600000000599,-6.4276426999999998202,-1.0169999999999999041,0
1310129995.4590001106,1977634,680,0.096865773485685285893,-0.037524578917878081974,0.88139127225713642666,55.237538600000000599,-6.4276426999999998202,-0.79900000000000004352,0
1310129995.6589999199,1978914,681,0.081332343142935761837,-0.036651914291880922925,0.87266462599716476678,55.237538600000000599,-6.4276426999999998202,-0.68600000000000005418,0
1310129995.8589999676,1980194,682,0.064751715248989621942,-0.037873644768276946981,0.87440995524915909876,55.237538600000000599,-6.4276426999999998202,-0.56399999999999994582,0
1310129996.0590000153,1981474,683,0.039968039870670143965,-0.040840704496667309953,0.89744830137548425864,55.237538600000000599,-6.4276426999999998202,-0.79000000000000003553,0
1310129996.2590000629,1982754,684,-0.0090757121103705144793,-0.042236967898262769983,0.92310464137980086097,55.237538600000000599,-6.4276426999999998202,-1.0789999999999999591,0
1310129996.4590001106,1984034,685,-0.034208453339088860934,-0.040142572795869572999,0.96691240560485858246,55.237538600000000599,-6.4276426999999998202,-1.3649999999999999911,0
1310129996.6589999199,1985314,686,-0.039793506945470707992,-0.034382986264288289968,0.99989912846755135689,55.237538600000000599,-6.4276426999999998202,-1.1890000000000000568,0
1310129996.8589999676,1986594,687,-0.038746309394274119908,-0.027052603405912107465,1.0211921453418821848,55.237538600000000599,-6.4276426999999998202,-0.97599999999999997868,0
1310129997.0590000153,1987874,688,-0.034382986264288289968,-0.015707963267948966968,1.0355038452082356848,55.237538600000000599,-6.4276426999999998202,-0.76300000000000001155,0
1310129997.2590000629,1989154,689,-0.039968039870670143965,-0.030194196059501899471,1.0398671683382214592,55.237538600000000599,-6.4276426999999998202,-0.72299999999999997602,0
1310129997.4590001106,1990434,690,-0.038920842319473548943,-0.08377580409572780995,1.0283479952750589348,55.237538600000000599,-6.4276426999999998202,-0.60599999999999998312,0
1310129997.6589999199,1991714,691,-0.041538836197465039968,-0.11763519158441781975,1.0140362954087054348,55.237538600000000599,-6.4276426999999998202,-0.20899999999999999134,0
1310129997.8589999676,1992995,692,-0.042236967898262769983,-0.068067840827778849921,0.99955006261715262372,55.237538600000000599,-6.4276426999999998202,0.24599999999999999645,0
1310129998.0590000153,1994275,693,-0.052359877559829882954,-0.029496064358704169456,0.99745566751475933653,55.237538600000000599,-6.4276426999999998202,0.75800000000000000711,0
1310129998.2590000629,1995555,694,-0.066322511575784517945,-0.031241393610698497962,0.9925687456091751848,55.237538600000000599,-6.4276426999999998202,1.2110000000000000764,0
1310129998.4590001106,1996835,695,-0.065100781099388493889,-0.03543018381548488499,1.0040879186723377092,55.237538600000000599,-6.4276426999999998202,1.3890000000000000124,0
1310129998.6589999199,1998115,696,-0.053581608036225913949,-0.034208453339088860934,1.0088003076527223278,55.237538600000000599,-6.4276426999999998202,1.8469999999999999751,0
1310129998.8589999676,1999395,697,-0.062482787221396995925,-0.023911010752322315459,1.0136872295583065906,55.237538600000000599,-6.4276426999999998202,2.1589999999999998082,0
1310129999.0590000153,2000675,698,-0.06702064327658224796,-0.020769418098732519984,1.0082767088771242836,55.237538600000000599,-6.4276426999999998202,2.4350000000000000533,0
1310129999.2590000629,2001955,699,-0.068940505453776015909,-0.00052359877559829881219,0.99675753581396153713,55.237530800000001818,-6.4276356000000003377,2.6459999999999999076,0
1310129999.4590001106,2003235,700,-0.078714349264944263873,0.017802358370342160482,1.0168288222118964104,55.237530399999997144,-6.4276340000000002917,2.9759999999999999787,0
1310129999.6589999199,2004515,701,-0.082728606544531221867,0.038920842319473548943,1.0259045343222668034,55.237529899999998406,-6.4276325999999999183,2.8250000000000001776,0
1310129999.8589999676,2005795,702,-0.07801621756414651998,0.046425758103049170888,1.0175269539126940987,55.2375292999999985,-6.4276318999999997317,2.7130000000000000782,0
1310130000.0590000153,2007075,703,-0.072082098107365807915,0.045553093477051997962,1.0131636307827083243,55.237528699999998594,-6.4276306999999999192,2.5110000000000001208,0
1310130000.2590000629,2008355,704,-0.07278022980816353793,0.025481807079117211462,0.99309234438477345108,55.237528699999998594,-6.4276305000000002465,2.6240000000000001101,0
1310130000.4590001106,2009635,705,-0.072082098107365807915,0.02635447170511437745,1.0044369845227365534,55.237528599999997425,-6.4276299999999997326,2.3509999999999999787,0
1310130000.6589999199,2010915,706,-0.055326937288220245925,0.013788101090755204223,0.99291781145957402899,55.237528900000000931,-6.4276308999999995919,2.3020000000000000462,0
1310130000.8589999676,2012195,707,-0.050963614158234422924,0.0057595865315812873678,1.0065313796251298406,55.237528900000000931,-6.4276311000000001528,2.1070000000000002061,0
1310130001.0590000153,2013475,708,-0.049567350756638955955,-0.010122909661567111236,0.98384209934920352492,55.237529700000003174,-6.4276324999999996379,2.3189999999999999503,0
1310130001.2590000629,2014755,709,-0.05410520681182421493,-0.020420352248333654976,0.98401663227440305803,55.237530100000000743,-6.4276331999999998246,2.2419999999999999929,0
1310130001.4590001106,2016035,710,-0.054279739737023643964,-0.042236967898262769983,0.99466314071156847199,55.237531500000002893,-6.4276340000000002917,2.2919999999999998153,0
1310130001.6589999199,2017315,711,-0.054628805587422508971,-0.0527089434102287549,1.0159561575858992999,55.237532500000000368,-6.4276346000000001979,2.5040000000000000036,0
1310130001.8589999676,2018595,712,-0.056374134839416840947,-0.061610122595399829937,1.0100220381291185046,55.237533700000000181,-6.4276350999999998237,2.4519999999999999574,0
1310130002.0590000153,2019875,713,-0.059515727493006639892,-0.060388392119003798941,0.9997245955423519348,55.237535000000001162,-6.427634900000000151,2.7719999999999997975,0
1310130002.2590000629,2021155,714,-0.075049157835756163948,-0.057072266540214577901,1.0021680564951440662,55.237536099999999806,-6.4276350999999998237,2.9159999999999999254,0
1310130002.4590001106,2022435,715,-0.081332343142935761837,-0.06318091892219472594,0.99902646384155424641,55.23753719999999845,-6.427634399999999637,3.0049999999999998934,0
1310130002.6589999199,2023715,716,-0.098785635662879053842,-0.060562925044203234914,0.99448860778636893887,55.23753820000000303,-6.4276340000000002917,3.3610000000000002096,0
1310130002.8589999676,2024995,717,-0.10768681484805013582,-0.061959188445798694944,1.0067059125503292627,55.237538899999997,-6.4276337000000003385,3.5779999999999998472,0
1310130003.0590000153,2026275,718,-0.12095131716320703386,-0.053058009260627619907,1.0112437686055144592,55.237539499999996906,-6.4276318999999997317,3.8109999999999999432,0
1310130003.2590000629,2027555,719,-0.12793263417118436176,-0.051312680008633287931,0.99797926629035760282,55.237540299999999149,-6.4276308999999995919,4.0890000000000004121,0
1310130003.4590001106,2028835,720,-0.13159782560037244781,-0.036826447217080351959,0.99518673948716673827,55.237540699999996718,-6.4276290999999998732,4.4139999999999997016,0
1310130003.6589999199,2030115,721,-0.13665928043115599388,-0.040666171571467880919,1.0026916552707423325,55.237541200000002561,-6.4276277000000003881,4.6619999999999999218,0
1310130003.8589999676,2031395,722,-0.055152404363020816891,-0.018325957145940461462,1.0035643198967394429,55.237540899999999056,-6.4276273000000001545,4.9150000000000000355,0
1310130004.0590000153,2032675,723,0.01483529864195180098,-0.013089969389957470738,0.99937552969195309061,55.237540899999999056,-6.4276273000000001545,5.2339999999999999858,0
1310130004.2590000629,2033955,724,0.033859387488689988988,-0.00069813170079773185801,0.99309234438477345108,55.237541000000000224,-6.4276248999999996414,5.6109999999999997655,0
1310130004.4590001106,2035235,725,0.03351032163829112398,0.00069813170079773185801,1.0056587149991327301,55.237541000000000224,-6.4276248999999996414,5.6180000000000003268,0
1310130004.6589999199,2036515,726,0.038571776469074683935,0.012740903539558605731,1.0150834929599019674,55.237540899999999056,-6.4276222000000000634,5.8550000000000004263,0
1310130004.8589999676,2037795,727,0.047996554429844059952,0.025656340004316643966,1.0276498635742612464,55.237540899999999056,-6.4276178000000001589,5.9969999999999998863,0
1310130005.0590000153,2039075,728,0.013613568165555769984,0.033684854563490559953,1.0140362954087054348,55.237540899999999056,-6.4276178000000001589,6.1570000000000000284,0
1310130005.2590000629,2040355,729,-0.016406094968746696983,0.059690260418206068926,1.0135126966331071685,55.23754160000000013,-6.4276113999999999749,6.1490000000000000213,0
1310130005.4590001106,2041635,730,-0.070860367630969769981,0.049916416607037820963,0.99920099676675366851,55.23754160000000013,-6.4276113999999999749,6.2709999999999999076,0
1310130005.6589999199,2042915,731,-0.084473935796525539965,0.035953782591083185971,1.0091493735031213941,55.237543299999998681,-6.4276033000000003526,6.3060000000000000497,0
1310130005.8589999676,2044195,732,-0.14800392056911915173,0.027227136331111539969,1.0183996185386912092,55.237543299999998681,-6.4276033000000003526,5.94599999999999973,0
1310130006.0590000153,2045475,733,-0.18483036778619948981,0.021118483949131384991,0.98733275785319218887,55.23754610000000298,-6.4275944000000002632,5.581000000000000405,0
1310130006.2590000629,2046755,734,-0.18832102629018815376,0.015009831567151233483,0.94911004723451641851,55.237547499999998024,-6.4275894999999998447,5.2350000000000003197,0
1310130006.4590001106,2048035,735,-0.20402898955813711379,0.030717794835100200451,0.84683375306764874235,55.237548599999996668,-6.4275865999999997058,4.9390000000000000568,0
1310130006.6589999199,2049315,736,-0.2214822820780804058,0.045902159327450862969,0.75101517713316001679,55.237550800000001061,-6.4275831999999999411,4.7210000000000000853,0
1310130006.8589999676,2050595,737,-0.24120450262561635157,0.04886921905584122594,0.68661252773456926679,55.23755260000000078,-6.4275795000000002233,4.5919999999999996376,0
1310130007.0590000153,2051875,738,-0.089011791851710805878,0.013962634015954636726,0.68085294120298789355,55.23755260000000078,-6.4275802999999998022,4.6210000000000004405,0
1310130007.2590000629,2053155,739,-0.036651914291880922925,0.0050614548307835556182,0.69446650936854370517,55.23755260000000078,-6.4275802999999998022,4.4640000000000004121,0
1310130007.4590001106,2054435,740,-0.016057029118347831975,-0.000349065850398865929,0.68172560582898511505,55.237555399999997974,-6.4275770999999997102,4.7660000000000000142,0
1310130007.6589999199,2055715,741,-0.010821041362364842986,-0.013264502315156904977,0.6862634618841704226,55.237555399999997974,-6.4275770999999997102,4.8189999999999999503,0
1310130007.8589999676,2056995,742,0.014311699866353501734,-0.0200712863979347865,0.68853238991176302086,55.237557700000003535,-6.4275758999999998977,5.0739999999999998437,0
1310130008.0590000153,2058275,743,0.02635447170511437745,-0.018849555921538758974,0.68957958746295955343,55.237559900000000823,-6.4275738000000002259,5.3460000000000000853,0
1310130008.2590000629,2059555,744,0.0078539816339744834839,-0.0031415926535897928731,0.70458941903011074182,55.237559900000000823,-6.4275738000000002259,5.5730000000000003979,0
1310130008.4590001106,2060835,745,-0.011693705988362008974,0.0064577182323790191174,0.71767938842006828715,55.237562300000000448,-6.4275691000000003683,5.7389999999999998792,0
1310130008.6589999199,2062115,746,-0.046425758103049170888,0.0200712863979347865,0.70546208365610807434,55.237562300000000448,-6.4275691000000003683,5.7419999999999999929,0
1310130008.8589999676,2063395,747,-0.070860367630969769981,0.032812189937493393965,0.6998770300497261232,55.237565199999998811,-6.4275624000000002312,5.8170000000000001705,0
1310130009.0590000153,2064675,748,-0.095993108859688119905,0.031415926535897933936,0.71122167018768922553,55.237565199999998811,-6.4275624000000002312,5.7919999999999998153,0
1310130009.2590000629,2065955,749,-0.10279989294246599796,0.039968039870670143965,0.70301862270331594296,55.237568500000001848,-6.4275542000000003284,5.7140000000000004121,0
1310130009.4590001106,2067236,750,-0.11222467090323538785,0.041538836197465039968,0.70947634093569489355,55.237568500000001848,-6.4275542000000003284,5.347999999999999865,0
1310130009.6589999199,2068516,751,-0.13124875974997357586,0.041713369122664475941,0.70528755073090854122,55.237568500000001848,-6.4275542000000003284,5.1139999999999998792,0
1310130009.8589999676,2069796,752,-0.1816887751326096978,0.021467549799530253468,0.69324477889214763948,55.237572200000002454,-6.427546099999999818,4.8579999999999996518,0
1310130010.0590000153,2071076,753,-0.19146261894377794577,0.015184364492350665987,0.68591439603377146739,55.237572200000002454,-6.427546099999999818,4.7249999999999996447,0
1310130010.2590000629,2072356,754,-0.19163715186897739562,0.001396263401595463716,0.69673543739613641446,55.23757789999999801,-6.4275362999999998692,4.9180000000000001492,0
1310130010.4590001106,2073636,755,-0.20490165418413427978,0.0036651914291880916853,0.71017447263649269296,55.237579900000000066,-6.4275333999999997303,5.0350000000000001421,0
1310130010.6589999199,2074916,756,-0.18919369091618531975,-0.01099557428756427549,0.70738194583330171739,55.237581699999999785,-6.4275317999999996843,4.875,0
1310130010.8589999676,2076196,757,-0.19163715186897739562,-0.011693705988362008974,0.70546208365610807434,55.237583600000000672,-6.4275298999999996852,4.7069999999999998508,0
1310130011.0590000153,2077476,758,-0.16947147036864940173,-0.013962634015954636726,0.69795716787253236912,55.237584300000001747,-6.4275297000000000125,4.5739999999999998437,0
1310130011.2590000629,2078756,759,-0.160570291183478292,-0.016231562043547264479,0.68067840827778847146,55.237585600000002728,-6.4275288000000001531,4.4790000000000000924,0
1310130011.4590001106,2080036,760,-0.1356120828799594058,-0.018849555921538758974,0.67806041439979702901,55.23758579999999796,-6.4275295000000003398,4.4089999999999998082,0
1310130011.6589999199,2081316,761,-0.13543754995475995595,-0.027227136331111539969,0.68399453385657771332,55.237586299999996697,-6.4275298999999996852,4.3380000000000000782,0
1310130011.8589999676,2082596,762,-0.12060225131280817579,-0.026179938779914941477,0.69097585086455515224,55.23758579999999796,-6.4275298999999996852,4.2179999999999999716,0
1310130012.0590000153,2083876,763,0.0085521133347722152335,0.0012217304763960307786,0.69935343127412785691,55.237585699999996791,-6.4275304000000001992,4.0910000000000001918,0
1310130012.2590000629,2085156,764,0.052010811709431017946,0.016580627893946129486,0.6855653301833726232,55.237585699999996791,-6.4275304000000001992,4.3440000000000003055,0
1310130012.4590001106,2086436,765,0.065973445725385645999,0.025307274153917775489,0.69865529957333016853,55.237585099999996885,-6.427530100000000246,4.2199999999999997513,0
1310130012.6589999199,2087716,766,0.057595865315812871943,0.027576202181510408445,0.69743356909693410284,55.237585099999996885,-6.427530100000000246,4.4370000000000002771,0
1310130012.8589999676,2088996,767,0.04886921905584122594,0.034732052114687154976,0.69586277277013908193,55.237585099999996885,-6.427530100000000246,4.5590000000000001634,0
1310130013.0590000153,2090276,768,-0.027576202181510408445,0.024260076602721176997,0.70808007753409951679,55.237584900000001653,-6.4275276000000003407,4.7580000000000000071,0
1310130013.2590000629,2091556,769,-0.086219265048519885819,0.024958208303518910481,0.68783425821096522146,55.237584900000001653,-6.4275254000000003884,5.0560000000000000497,0
1310130013.4590001106,2092836,770,-0.12025318546240930384,0.043284165449459371944,0.6990043654237289017,55.23758579999999796,-6.4275200999999997364,5.376000000000000334,0
1310130013.6589999199,2094116,771,-0.14538592669112765376,0.04834562028024292496,0.71855205304606550865,55.237586499999999035,-6.427517299999999878,5.6650000000000000355,0
1310130013.8589999676,2095396,772,-0.18587756533739610565,0.051138147083433858897,0.72483523835324503715,55.237588199999997585,-6.4275109999999999744,5.9930000000000003268,0
1310130014.0590000153,2096676,773,-0.21851522234969003589,0.056897733615015141928,0.70912727508529616038,55.237589200000002165,-6.4275074999999999292,6.2039999999999997371,0
1310130014.2590000629,2097956,774,-0.23998277214922031364,0.069289571304174887856,0.70773101168370056158,55.237590500000003146,-6.4275023999999998381,6.1929999999999996163,0
1310130014.4590001106,2099236,775,-0.24958208303518913951,0.071558499331767499996,0.7140141969908802011,55.237591500000000622,-6.4274987000000001203,6.1730000000000000426,0
1310130014.6589999199,2100516,776,-0.22444934180647077571,0.075398223686155035894,0.72361350787684908248,55.237591399999999453,-6.4274995999999999796,5.8959999999999999076,0
1310130014.8589999676,2101796,777,-0.1427679328131361558,0.097040306410884707988,0.71698125671927048774,55.237592999999996835,-6.4274968000000001211,5.6219999999999998863,0
1310130015.0590000153,2103076,778,-0.10611601852125523981,0.093026049131297763872,0.69568823984493977086,55.237592999999996835,-6.4274968000000001211,5.4119999999999999218,0
1310130015.2590000629,2104356,779,-0.091804318654901725938,0.083950337020927245923,0.6860889289589710005,55.237594299999997816,-6.4274975999999997001,5.4050000000000002487,0
1310130015.4590001106,2105636,780,-0.078714349264944263873,0.0059341194567807207388,0.70022609590012496739,55.237594299999997816,-6.4274975999999997001,5.3460000000000000853,0
1310130015.6589999199,2106916,781,-0.06318091892219472594,-0.045902159327450862969,0.69237211426615052901,55.237595900000002302,-6.4275001999999998858,5.7160000000000001918,0
1310130015.8589999676,2108196,782,-0.056374134839416840947,-0.076445421237351637855,0.69813170079773179122,55.237596699999997441,-6.4275026000000003989,5.9619999999999997442,0
1310130016.0590000153,2109476,783,-0.059515727493006639892,-0.090757121103705137855,0.69184851549055226272,55.23759809999999959,-6.4275044000000001176,6.2789999999999999147,0
1310130016.2590000629,2110756,784,-0.058468529941810037931,-0.027227136331111539969,0.68748519236056637727,55.237597999999998422,-6.4275041999999995568,6.5389999999999997016,0
1310130016.4590001106,2112036,785,-0.062308254296197559952,0.037873644768276946981,0.68312186923058060284,55.237597999999998422,-6.4275041999999995568,6.7649999999999996803,0
1310130016.6589999199,2113316,786,-0.076270888312152201882,0.058119464091411172924,0.69778263494733283601,55.23759979999999814,-6.4275061999999998363,6.9340000000000001634,0
1310130016.8589999676,2114596,787,-0.076096355386952765909,0.04834562028024292496,0.70319315562851536505,55.23759979999999814,-6.4275061999999998363,7.0640000000000000568,0
1310130017.0590000153,2115876,788,-0.080983277292536889891,0.020420352248333654976,0.7131415323648829796,55.237601099999999121,-6.4275066000000000699,7.1619999999999999218,0
1310130017.2590000629,2117156,789,-0.093724180832095493887,-0.018849555921538758974,0.72239177740045301679,55.237602099999996597,-6.4275066000000000699,7.2380000000000004334,0
1310130017.4590001106,2118436,790,-0.090757121103705137855,-0.017976891295541592986,0.7147123286916780005,55.237603000000000009,-6.4275066000000000699,7.3550000000000004263,0
1310130017.6589999199,2119716,791,-0.098611102737679617869,-0.017104226669544430467,0.70074969467572323367,55.237603700000001083,-6.4275066000000000699,7.0929999999999999716,0
1310130017.8589999676,2120996,792,-0.10960667702524390377,-0.015358897417550100226,0.6990043654237289017,55.23760459999999739,-6.4275066000000000699,6.8799999999999998934,0
1310130018.0590000153,2122276,793,-0.11292280260403311787,0.023212879051524585444,0.69045225208895677493,55.237604900000000896,-6.4275064999999997895,6.8520000000000003126,0
1310130018.2590000629,2123556,794,-0.094771378383292081971,0.068765972528576579936,0.69830623372293121331,55.237604900000000896,-6.4275064999999997895,6.7270000000000003126,0
1310130018.4590001106,2124836,795,-0.08813912722571363989,0.076969020012949931897,0.69621183862053803715,55.237605100000003233,-6.4275066000000000699,6.6020000000000003126,0
1310130018.6589999199,2126116,796,-0.073652894434160703918,0.066846110351382825865,0.69935343127412785691,55.237605100000003233,-6.4275066000000000699,6.4800000000000004263,0
1310130018.8589999676,2127396,797,-0.052359877559829882954,0.058119464091411172924,0.71785392134526782026,55.237605100000003233,-6.4275073000000002565,6.5629999999999997229,0
1310130019.0590000153,2128676,798,-0.047298422729046329938,-0.0099483767363676769979,0.71244340066408529122,55.237605100000003233,-6.4275077999999998823,6.7889999999999997016,0
1310130019.2590000629,2129956,799,-0.052010811709431017946,-0.025830872929516076469,0.6925466471913499511,55.237605100000003233,-6.4275088000000000221,7.0780000000000002913,0
1310130019.4590001106,2131236,800,-0.025481807079117211462,0.008377580409572780995,0.69586277277013908193,55.237605199999997296,-6.4275089999999996948,7.3899999999999996803,0
1310130019.6589999199,2132516,801,-0.015184364492350665987,0.04694935687864746493,0.6990043654237289017,55.237605199999997296,-6.4275089999999996948,7.724000000000000199,0
1310130019.8589999676,2133796,802,-0.021642082724729685972,0.06614797865058509585,0.70179689222691987727,55.237605500000000802,-6.4275108999999996939,8.0559999999999991616,0
1310130020.0590000153,2135076,803,-0.02059488517353308748,0.064751715248989621942,0.71279246651448424643,55.237605500000000802,-6.4275108999999996939,8.2579999999999991189,0
1310130020.2590000629,2136356,804,-0.020943951023931952488,0.049392817831439526921,0.70232049100251825458,55.237605799999997203,-6.4275123000000000673,8.3409999999999993037,0
1310130020.4590001106,2137636,805,-0.054279739737023643964,-0.010122909661567111236,0.69621183862053803715,55.237605799999997203,-6.4275134999999998797,8.4049999999999993605,0
1310130020.6589999199,2138917,806,-0.06318091892219472594,-0.02635447170511437745,0.70424035317971200865,55.237606300000003046,-6.4275142000000000664,8.6880000000000006111,0
1310130020.8589999676,2140197,807,-0.071907565182166371942,-0.029670597283903601959,0.70528755073090854122,55.237606499999998277,-6.427514900000000253,9.0869999999999997442,0
1310130021.0590000153,2141477,808,-0.0785398163397448279,-0.04118977034706617496,0.71593405916807406619,55.237607400000001689,-6.4275159000000003928,9.0310000000000005826,0
1310130021.2590000629,2142757,809,-0.079063415115343135819,-0.041887902047863904975,0.71785392134526782026,55.237607900000000427,-6.4275169999999999249,8.98300000000000054,0
1310130021.4590001106,2144037,810,-0.068067840827778849921,-0.025481807079117211462,0.71226886773888586912,55.237607599999996921,-6.4275177000000001115,8.8510000000000008669,0
1310130021.6589999199,2145317,811,-0.0089011791851710802409,0.017976891295541592986,0.69499010814414197146,55.237607099999998184,-6.4275187999999996435,8.7609999999999992326,0
1310130021.8589999676,2146597,812,0.017802358370342160482,0.03351032163829112398,0.68416906678177724643,55.237607099999998184,-6.4275187999999996435,8.7059999999999995168,0
1310130022.0590000153,2147877,813,0.034208453339088860934,0.040317105721069015911,0.70266955685291698774,55.237605899999998371,-6.4275206000000002504,8.653000000000000469,0
1310130022.2590000629,2149157,814,0.050090949532237256936,0.042411500823462212895,0.69324477889214763948,55.237605899999998371,-6.4275206000000002504,8.5890000000000004121,0
1310130022.4590001106,2150437,815,0.068765972528576579936,0.04502949470145370392,0.70354222147891432027,55.237604400000002158,-6.4275222999999996887,8.5079999999999991189,0
1310130022.6589999199,2151717,816,0.078714349264944263873,0.028623399732707003468,0.70912727508529616038,55.237604400000002158,-6.4275222999999996887,8.7449999999999992184,0
1310130022.8589999676,2152997,817,0.092153384505300597884,0.017453292519943295474,0.70319315562851536505,55.237603399999997578,-6.4275238000000003424,8.9939999999999997726,0
1310130023.0590000153,2154277,818,0.085870199198121013873,0.0031415926535897928731,0.70633474828210518481,55.237603399999997578,-6.4275238000000003424,9.2520000000000006679,0
1310130023.2590000629,2155557,819,0.085172067497323283858,-0.0059341194567807207388,0.68870692283696244296,55.237603399999997578,-6.4275238000000003424,9.6229999999999993321,0
1310130023.4590001106,2156837,820,0.071034900556169219832,-0.0089011791851710802409,0.70458941903011074182,55.237603499999998746,-6.4275242999999999682,9.7840000000000006963,0
1310130023.6589999199,2158117,821,0.06702064327658224796,0.0019198621771937625282,0.70458941903011074182,55.237603499999998746,-6.4275242999999999682,9.92900000000000027,0
1310130023.8589999676,2159397,822,0.053058009260627619907,0.013264502315156904977,0.70982540678609384877,55.237604199999999821,-6.4275232999999998285,10.08799999999999919,0
1310130024.0590000153,2160677,823,0.049741883681838391928,0.0200712863979347865,0.70092422760092265577,55.237604199999999821,-6.4275232999999998285,10.303000000000000824,0
1310130024.2590000629,2161957,824,0.027227136331111539969,0.056199601914217411913,0.70214595807731872146,55.237605399999999634,-6.4275206999999996427,10.545999999999999375,0
1310130024.4590001106,2163237,825,0.0075049157835756167417,0.086917396749317615834,0.69289571304174890631,55.237605399999999634,-6.4275206999999996427,10.967000000000000526,0
1310130024.6589999199,2164517,826,-0.0022689280275926286198,0.10297442586766544781,0.70825461045929893888,55.237606800000001783,-6.4275168000000002522,11.182999999999999829,0
1310130024.8589999676,2165797,827,0.0036651914291880916853,0.090408055253306265908,0.72082098107365799589,55.237608500000000333,-6.4275126000000000204,11.348000000000000753,0
1310130025.0590000153,2167077,828,0.0097738438111682462289,0.076096355386952765909,0.72413710665244734876,55.237608500000000333,-6.4275126000000000204,11.438000000000000611,0
1310130025.2590000629,2168357,829,0.0068067840827778849921,0.054977871437821380918,0.71523592746727615577,55.237610699999997621,-6.4275092999999996479,11.695000000000000284,0
1310130025.4590001106,2169637,830,0.013962634015954636726,0.032986722862692823,0.72221724447525359469,55.237610699999997621,-6.4275092999999996479,12.083999999999999631,0
1310130025.6589999199,2170917,831,0.021118483949131384991,0.023561944901923450452,0.706683814132504029,55.237613199999998415,-6.4275073000000002565,12.516000000000000014,0
1310130025.8589999676,2172197,832,0.024958208303518910481,0.021642082724729685972,0.7058111495065068075,55.237613199999998415,-6.4275073000000002565,12.865999999999999659,0
1310130026.0590000153,2173477,833,0.026179938779914941477,0.024783675378319477978,0.70022609590012496739,55.237615900000001545,-6.4275064000000003972,12.877000000000000668,0
1310130026.2590000629,2174757,834,0.028099800957108705957,0.022863813201125716967,0.69673543739613641446,55.237615900000001545,-6.4275064000000003972,13.14199999999999946,0
1310130026.4590001106,2176037,835,0.027052603405912107465,0.017278759594743862971,0.70563661658130738541,55.237615900000001545,-6.4275064000000003972,13.435000000000000497,0
1310130026.6589999199,2177317,836,0.030717794835100200451,0.017453292519943295474,0.71122167018768922553,55.237618599999997571,-6.4275057999999996028,13.621999999999999886,0
1310130026.8589999676,2178597,837,0.032288591161895099924,0.0066322511575784524884,0.69167398256535284062,55.237618599999997571,-6.4275057999999996028,14.057999999999999829,0
1310130027.0590000153,2179877,838,0.032463124087094528958,0.0061086523819801532426,0.7068583470577034511,55.237621199999999533,-6.4275054000000002574,14.385999999999999233,0
1310130027.2590000629,2181157,839,0.032637657012293964931,0.0064577182323790191174,0.70790554460890009469,55.237621199999999533,-6.4275054000000002574,14.666000000000000369,0
1310130027.4590001106,2182437,840,0.03211405823669566395,0.012042771838760872247,0.70406582025451258655,55.237623800000001495,-6.4275048000000003512,15.122999999999999332,0
1310130027.6589999199,2183717,841,0.034208453339088860934,0.015533430342749532729,0.69289571304174890631,55.237623800000001495,-6.4275048000000003512,15.599000000000000199,0
1310130027.8589999676,2184997,842,0.034382986264288289968,0.021991148575128550979,0.70982540678609384877,55.237626300000002288,-6.4275039999999998841,16.103999999999999204,0
1310130028.0590000153,2186277,843,0.031939525311496227977,0.021467549799530253468,0.70808007753409951679,55.237628800000003082,-6.4275028000000000716,16.585000000000000853,0
1310130028.2590000629,2187557,844,0.025307274153917775489,0.023387411976724017948,0.71366513114048135691,55.237628800000003082,-6.4275028000000000716,16.905999999999998806,0
1310130028.4590001106,2188837,845,0.015707963267948966968,0.022689280275926284464,0.71453779576647846739,55.23763129999999677,-6.4275013999999996983,17.280000000000001137,0
1310130028.6589999199,2190117,846,-0.0029670597283903603694,0.025307274153917775489,0.70406582025451258655,55.23763129999999677,-6.4275013999999996983,17.724000000000000199,0
1310130028.8589999676,2191397,847,-0.053232542185827048942,0.0087266462599716477372,0.70197142515211929936,55.237633799999997564,-6.4275000999999996054,17.99299999999999855,0
1310130029.0590000153,2192677,848,-0.11728612573401893393,-0.02827433388230813846,0.69411744351814486098,55.237634999999997376,-6.4274995999999999796,18.275999999999999801,0
1310130029.2590000629,2193957,849,-0.13910274138394806975,-0.035255650890285455956,0.7148868616168774226,55.237636199999997189,-6.4274993000000000265,18.638999999999999346,0
1310130029.4590001106,2195237,850,-0.13421581947836394577,-0.039793506945470707992,0.71279246651448424643,55.237637200000001769,-6.427498899999999793,18.940999999999998948,0
1310130029.6589999199,2196517,851,-0.14538592669112765376,-0.039793506945470707992,0.71802845427046713134,55.237637900000002844,-6.427498899999999793,19.161999999999999034,0
1310130029.8589999676,2197797,852,-0.12653637076958890173,-0.035081117965086019983,0.72466070542804561505,55.237637999999996907,-6.4275000999999996054,19.292000000000001592,0
1310130030.0590000153,2199077,853,-0.11292280260403311787,-0.037699111843077517947,0.70842914338449836098,55.237638300000000413,-6.4275003999999995585,19.379999999999999005,0
1310130030.2590000629,2200357,854,-0.090233522328106829935,-0.012566370614359171493,0.71349059821528193481,55.237637300000002938,-6.4275025000000001185,19.083999999999999631,0
1310130030.4590001106,2201637,855,-0.056199601914217411913,-0.022340214425527419456,0.6990043654237289017,55.237636799999997095,-6.4275041000000001645,18.657000000000000028,0
1310130030.6589999199,2202917,856,-0.011868238913561441478,-0.023387411976724017948,0.68155107290378558194,55.237634800000002144,-6.4275071999999999761,18.571000000000001506,0
1310130030.8589999676,2204197,857,0.0073303828583761833707,-0.022863813201125716967,0.70616021535690576272,55.237633600000002332,-6.4275095000000002088,18.202000000000001734,0
1310130031.0590000153,2205477,858,0.041015237421866745926,-0.022863813201125716967,0.7005751617505239226,55.23763100000000037,-6.4275131999999999266,17.878000000000000114,0
1310130031.2590000629,2206757,859,0.059515727493006639892,-0.024609142453120045474,0.69865529957333016853,55.237629200000000651,-6.4275159999999997851,17.855000000000000426,0
1310130031.4590001106,2208037,860,0.079412480965741993888,-0.026005405854715508973,0.70179689222691987727,55.237626599999998689,-6.4275194999999998302,17.855000000000000426,0
1310130031.6589999199,2209317,861,0.099309234438477361762,-0.025481807079117211462,0.68277280338018164763,55.237624599999996633,-6.4275222999999996887,18.007999999999999119,0
1310130031.8589999676,2210597,862,0.1038470904936626138,-0.02251474735072685196,0.68347093508097933601,55.237622600000001682,-6.427524799999999594,17.974000000000000199,0
1310130032.0590000153,2211877,863,0.11501719770642630791,-0.020245819323134222473,0.71994831644766088541,55.237620900000003132,-6.4275266999999995932,18.19900000000000162,0
1310130032.2590000629,2213157,864,0.10070549784007280791,-0.015533430342749532729,0.70266955685291698774,55.237619500000000983,-6.4275285000000002,18.443000000000001393,0
1310130032.4590001106,2214438,865,0.10524335389525807383,-0.015707963267948966968,0.71907565182166377493,55.237618500000003507,-6.4275297000000000125,18.65899999999999892,0
1310130032.6589999199,2215718,866,0.086219265048519885819,-0.01099557428756427549,0.71523592746727615577,55.237617399999997758,-6.4275308000000004327,18.830999999999999517,0
1310130032.8589999676,2216998,867,0.083252205320129515909,-0.0068067840827778849921,0.70563661658130738541,55.237616699999996683,-6.4275311000000003858,18.946999999999999176,0
1310130033.0590000153,2218278,868,0.068591439603377157841,0,0.7058111495065068075,55.237616099999996777,-6.4275314999999997312,18.789000000000001478,0
1310130033.2590000629,2219558,869,0.062657320146596431898,0.0017453292519943295908,0.69307024596694821739,55.237615300000001639,-6.4275320000000002452,18.870999999999998664,0
1310130033.4590001106,2220838,870,0.049741883681838391928,-0.0052359877559829881219,0.69062678501415619703,55.237615400000002808,-6.4275317999999996843,18.835000000000000853,0
1310130033.6589999199,2222118,871,0.046425758103049170888,-0.002792526803190927432,0.69429197644334428308,55.237614999999998133,-6.4275320000000002452,18.76699999999999946,0
1310130033.8589999676,2223398,872,-0.0082030474843733484913,-0.053581608036225913949,0.69184851549055226272,55.23761520000000047,-6.4275320000000002452,18.789999999999999147,0
1310130034.0590000153,2224678,873,-0.014311699866353501734,-0.074700091985357305879,0.70720741290810240631,55.23761520000000047,-6.4275320000000002452,18.692000000000000171,0
1310130034.2590000629,2225958,874,-0.014660765716752366741,-0.081332343142935761837,0.69725903617173468074,55.237614899999996965,-6.4275317000000002921,18.385000000000001563,0
1310130034.4590001106,2227238,875,-0.015707963267948966968,-0.08290313946973065784,0.69341931181734706158,55.237614899999996965,-6.4275317000000002921,18.32400000000000162,0
1310130034.6589999199,2228518,876,-0.0094247779607693794868,-0.081332343142935761837,0.69516464106934139355,55.237614399999998227,-6.4275310000000001054,18.047000000000000597,0
1310130034.8589999676,2229798,877,-0.0052359877559829881219,-0.091804318654901725938,0.68923052161256070924,55.237613000000003183,-6.4275295999999997321,17.789999999999999147,0
1310130035.0590000153,2231078,878,0.002792526803190927432,-0.066497044500983953919,0.68713612651016753308,55.237613000000003183,-6.4275295999999997321,17.582999999999998408,0
1310130035.2590000629,2232358,879,0.010646508437165410482,-0.052185344634630453919,0.69516464106934139355,55.237610300000000052,-6.4275270999999998267,17.397999999999999687,0
1310130035.4590001106,2233638,880,0.022165681500327983483,-0.031764992386296798943,0.68678706065976868889,55.237610300000000052,-6.4275270999999998267,17.265999999999998238,0
1310130035.6589999199,2234918,881,0.032986722862692823,-0.030543261909900767948,0.70109876052612218889,55.237606499999998277,-6.4275234000000001089,17.150999999999999801,0
1310130035.8589999676,2236198,882,0.034382986264288289968,-0.015707963267948966968,0.68905598868736128715,55.237606499999998277,-6.4275234000000001089,17.245999999999998664,0
1310130036.0590000153,2237478,883,0.040840704496667309953,0.0026179938779914940609,0.67666415099820165224,55.237602099999996597,-6.4275185999999999709,17.329000000000000625,0
1310130036.2590000629,2238758,884,0.042760566673861077902,0.025307274153917775489,0.71104713726248991446,55.237602099999996597,-6.4275185999999999709,17.454999999999998295,0
1310130036.4590001106,2240038,885,0.047822021504644630918,0.039793506945470707992,0.71872658597126493074,55.237602099999996597,-6.4275185999999999709,17.687000000000001165,0
1310130036.6589999199,2241318,886,0.084823001646924425789,0.05026548245743668597,0.71296699943968366853,55.237597399999998515,-6.4275130000000002539,17.922000000000000597,0
1310130036.8589999676,2242598,887,0.12775810124598491191,0.07278022980816353793,0.71750485549486886505,55.237597399999998515,-6.4275130000000002539,18.077000000000001734,0
1310130037.0590000153,2243878,888,0.13386675362796507383,0.07330382858376184585,0.71663219086887175457,55.237592800000001603,-6.4275070999999996957,18.123999999999998778,0
1310130037.2590000629,2245158,889,0.12740903539558603996,0.075398223686155035894,0.71349059821528193481,55.237592800000001603,-6.4275070999999996957,18.166000000000000369,0
1310130037.4590001106,2246438,890,0.12426744274199626183,0.061610122595399829937,0.70720741290810240631,55.237588700000003428,-6.4275012000000000256,18.312000000000001165,0
1310130037.6589999199,2247718,891,0.12950343049797924388,0.063006385996995289966,0.70842914338449836098,55.237588700000003428,-6.4275012000000000256,18.446000000000001506,0
1310130037.8589999676,2248998,892,0.11571532940722405181,0.054977871437821380918,0.70458941903011074182,55.237585699999996791,-6.4274950999999997947,18.565999999999998948,0
1310130038.0590000153,2250278,893,0.10786134777324955791,0.050963614158234422924,0.70650928120730449589,55.237584200000000578,-6.4274886000000002184,18.670999999999999375,0
1310130038.2590000629,2251558,894,0.093200582056497199845,0.036477381366681486952,0.69778263494733283601,55.237584200000000578,-6.4274886000000002184,18.756000000000000227,0
1310130038.4590001106,2252838,895,0.089360857702109677825,0.038571776469074683935,0.68940505453776013134,55.237583899999997072,-6.4274819000000000813,18.841999999999998749,0
1310130038.6589999199,2254118,896,0.079761546816140865834,0.03543018381548488499,0.70319315562851536505,55.237583899999997072,-6.4274819000000000813,18.702999999999999403,0
1310130038.8589999676,2255398,897,0.075398223686155035894,0.031939525311496227977,0.69830623372293121331,55.237584400000002915,-6.4274750000000002714,18.36799999999999855,0
1310130039.0590000153,2256678,898,0.063879050622992455954,0.025481807079117211462,0.68399453385657771332,55.237584400000002915,-6.4274750000000002714,18.300000000000000711,0
1310130039.2590000629,2257958,899,0.060213859193804369907,0.025307274153917775489,0.68661252773456926679,55.237585500000001559,-6.4274680000000001812,18.221000000000000085,0
1310130039.4590001106,2259238,900,0.054628805587422508971,0.021467549799530253468,0.68835785698656348774,55.237585500000001559,-6.4274680000000001812,18.34100000000000108,0
1310130039.6589999199,2260518,901,0.059690260418206068926,0.026005405854715508973,0.69010318623855793074,55.237585500000001559,-6.4274680000000001812,18.155999999999998806,0
1310130039.8589999676,2261798,902,0.066671577426183389892,0.023561944901923450452,0.68067840827778847146,55.237586999999997772,-6.427461300000000044,18.268999999999998352,0
1310130040.0590000153,2263078,903,0.086219265048519885819,0.019547687622336492458,0.69341931181734706158,55.237586999999997772,-6.427461300000000044,18.001000000000001222,0
1310130040.2590000629,2264358,904,0.098611102737679617869,0.015184364492350665987,0.69289571304174890631,55.237588899999998659,-6.42745489999999986,17.932999999999999829,0
1310130040.4590001106,2265638,905,0.1055924197456569319,0.021467549799530253468,0.6860889289589710005,55.237588899999998659,-6.42745489999999986,18.047000000000000597,0
1310130040.6589999199,2266918,906,0.11693705988362007586,0.020245819323134222473,0.706683814132504029,55.237591100000003053,-6.4274487999999996291,17.958999999999999631,0
1310130040.8589999676,2268198,907,0.12007865253720986787,0.017104226669544430467,0.70336768855371478715,55.237591100000003053,-6.4274487999999996291,17.928999999999998494,0
1310130041.0590000153,2269478,908,0.11676252695842065377,0.0090757121103705144793,0.71418872991607962319,55.237593900000000247,-6.4274427000000002863,17.782000000000000028,0
1310130041.2590000629,2270758,909,0.11205013797803595188,0.01029744258676654374,0.69638637154573745924,55.237597299999997347,-6.4274357999999995883,17.832000000000000739,0
1310130041.4590001106,2272038,910,0.10524335389525807383,0.0085521133347722152335,0.70895274216009662727,55.237597299999997347,-6.4274357999999995883,17.620999999999998664,0
1310130041.6589999199,2273318,911,0.097040306410884707988,0.0094247779607693794868,0.69533917399454092667,55.237601599999997859,-6.4274278999999996387,17.722000000000001307,0
1310130041.8589999676,2274598,912,0.088837258926511369905,0.01413716694115406923,0.70109876052612218889,55.237601599999997859,-6.4274278999999996387,17.626000000000001222,0
1310130042.0590000153,2275878,913,0.063355451847394161913,0.015184364492350665987,0.69010318623855793074,55.237606499999998277,-6.4274187999999998766,17.620000000000000995,0
1310130042.2590000629,2277158,914,0.033684854563490559953,0.011693705988362008974,0.6990043654237289017,55.237606499999998277,-6.4274187999999998766,17.539999999999999147,0
1310130042.4590001106,2278438,915,0.021467549799530253468,0.019896753472735353996,0.70336768855371478715,55.237611700000002202,-6.4274089999999999279,17.402999999999998693,0
1310130042.6589999199,2279718,916,0.012915436464758038235,0.020943951023931952488,0.69411744351814486098,55.237611700000002202,-6.4274089999999999279,17.597000000000001307,0
1310130042.8589999676,2280998,917,0.013962634015954636726,0.018325957145940461462,0.70720741290810240631,55.237611700000002202,-6.4274089999999999279,17.545999999999999375,0
1310130043.0590000153,2282278,918,0.014660765716752366741,0.023212879051524585444,0.70546208365610807434,55.237616899999999021,-6.427398900000000026,17.765000000000000568,0
1310130043.2599999905,2283559,919,0.019024088846738191477,0.02443460952792061297,0.69586277277013908193,55.237616899999999021,-6.427398900000000026,17.603999999999999204,0
1310130043.4590001106,2284838,920,0.036477381366681486952,0.0200712863979347865,0.70232049100251825458,55.237621799999999439,-6.42738929999999975,17.826000000000000512,0
1310130043.6589999199,2286118,921,0.03735004599267865294,0.028099800957108705957,0.69411744351814486098,55.237621799999999439,-6.42738929999999975,17.798999999999999488,0
1310130043.8599998951,2287399,922,0.048694686130641796906,0.024085543677521744493,0.69778263494733283601,55.237626300000002288,-6.4273803999999996606,17.739000000000000767,0
1310130044.0599999428,2288679,923,0.060562925044203234914,0.021816615649929118476,0.6845181326321759796,55.237626300000002288,-6.4273803999999996606,17.722999999999998977,0
1310130044.2599999905,2289959,924,0.071733032256966949847,0.017802358370342160482,0.70877820923489720517,55.237630400000000463,-6.4273721000000003656,17.437000000000001165,0
1310130044.4600000381,2291239,925,0.066497044500983953919,0.013089969389957470738,0.71715578964447002086,55.237630400000000463,-6.4273721000000003656,17.460999999999998522,0
1310130044.6600000858,2292519,926,0.069289571304174887856,0.014311699866353501734,0.71558499331767511098,55.237634300000003407,-6.4273638999999995747,17.484999999999999432,0
1310130044.8599998951,2293799,927,0.067718774977379977975,0.01919862177193762745,0.70528755073090854122,55.237638199999999244,-6.4273557999999999524,17.446000000000001506,0
1310130045.0599999428,2295079,928,0.069464104229374309951,0.017104226669544430467,0.71750485549486886505,55.237638199999999244,-6.4273557999999999524,17.196999999999999176,0
1310130045.2599999905,2296359,929,0.064577182323790199847,0.016231562043547264479,0.70755647875850113948,55.23764189999999985,-6.4273474999999997692,17.298999999999999488,0
